{
    "teams": [
			{"tid":	0		, "cid": 3, "did": 6, "region": "Washington", "name": "Evergreens", "abbrev": "WASH", "pop": 31, "city": "Seattle", "state": "WA", "latitude": 47.606, "longitude": -122.332},
			{"tid":	1		, "cid": 3, "did": 6, "region": "Washington State", "name": "Goldfinches", "abbrev": "WASS", "pop": 30, "city": "Spokane", "state": "WA", "latitude": 47.66, "longitude": -117.429},
			{"tid":	2		, "cid": 3, "did": 6, "region": "Oregon", "name": "Beavers", "abbrev": "ORE", "pop": 29, "city": "Portland", "state": "OR", "latitude": 45.523, "longitude": -122.676},
			{"tid":	3		, "cid": 3, "did": 6, "region": "Oregon State", "name": "Meadowlarks", "abbrev": "ORES", "pop": 28, "city": "Eugene", "state": "OR", "latitude": 44.052, "longitude": -123.087},
			{"tid":	4		, "cid": 3, "did": 6, "region": "California", "name": "Gold", "abbrev": "CAL", "pop": 27, "city": "Los Angeles", "state": "CA", "latitude": 34.052, "longitude": -118.244},
			{"tid":	5		, "cid": 3, "did": 6, "region": "California State", "name": "Poppies ", "abbrev": "CALS", "pop": 26, "city": "San Diego", "state": "CA", "latitude": 32.715, "longitude": -117.157},
			{"tid":	6		, "cid": 3, "did": 6, "region": "California Tech", "name": "Miners", "abbrev": "CALT", "pop": 25, "city": "San Jose", "state": "CA", "latitude": 37.339, "longitude": -121.895},
			{"tid":	7		, "cid": 3, "did": 6, "region": "Nevada", "name": "Silver", "abbrev": "NEV", "pop": 24, "city": "Las Vegas", "state": "NV", "latitude": 36.175, "longitude": -115.137},
			{"tid":	8		, "cid": 3, "did": 7, "region": "Arizona", "name": "Copper", "abbrev": "ARIZ", "pop": 23, "city": "Phoenix", "state": "AZ", "latitude": 33.448, "longitude": -112.074},
			{"tid":	9		, "cid": 3, "did": 7, "region": "Arizona State", "name": "Canyons", "abbrev": "ARIS", "pop": 22, "city": "Tucson", "state": "AZ", "latitude": 32.222, "longitude": -110.926},
			{"tid":	10		, "cid": 3, "did": 7, "region": "Nevada State", "name": "Sage", "abbrev": "NEVS", "pop": 21, "city": "Henderson", "state": "NV", "latitude": 36.04, "longitude": -114.982},
			{"tid":	11		, "cid": 3, "did": 7, "region": "Hawaii", "name": "Aloha", "abbrev": "HAWA", "pop": 20, "city": "Honolulu", "state": "HI", "latitude": 21.307, "longitude": -157.858},
			{"tid":	12		, "cid": 3, "did": 7, "region": "Alaska", "name": "Frontiersmen", "abbrev": "ALAS", "pop": 19, "city": "Anchorage", "state": "AK", "latitude": 61.218, "longitude": -149.9},
			{"tid":	13		, "cid": 3, "did": 7, "region": "Utah", "name": "Bees", "abbrev": "UTAH", "pop": 18, "city": "Salt Lake City", "state": "UT", "latitude": 40.761, "longitude": -111.891},
			{"tid":	14		, "cid": 3, "did": 7, "region": "Colorado", "name": "Larks", "abbrev": "COLO", "pop": 17, "city": "Denver", "state": "CO", "latitude": 39.739, "longitude": -104.985},
			{"tid":	15		, "cid": 3, "did": 7, "region": "Idaho", "name": "Gems", "abbrev": "IDAH", "pop": 16, "city": "Boise", "state": "ID", "latitude": 43.614, "longitude": -116.203},
			{"tid":	16	,	"cid": 4, "did": 8, "region": "Kansas", "name": "Sunflowers", "abbrev": "KANS", "pop": 15, "city": "Wichita", "state": "KS", "latitude": 37.692, "longitude": -97.338},
			{"tid":	17	,	"cid": 4, "did": 8, "region": "Oklahoma", "name": "Sooners", "abbrev": "OKL", "pop": 14, "city": "Oklahoma City", "state": "OK", "latitude": 35.468, "longitude": -97.516},
			{"tid":	18	,	"cid": 4, "did": 8, "region": "Minnesota State", "name": "Loons", "abbrev": "MINS", "pop": 13, "city": "Saint Paul", "state": "MN", "latitude": 44.944, "longitude": -93.093},
			{"tid":	19	,	"cid": 4, "did": 8, "region": "Kansas State", "name": "Meadowlarks", "abbrev": "KST", "pop": 12, "city": "Overland Park", "state": "KS", "latitude": 38.982, "longitude": -94.671},
			{"tid":	20	,	"cid": 4, "did": 8, "region": "Oklahoma State", "name": "Scissor Tails", "abbrev": "OSU", "pop": 11, "city": "Tulsa", "state": "OK", "latitude": 36.154, "longitude": -95.993},
			{"tid":	21	,	"cid": 4, "did": 8, "region": "Wyoming", "name": "Jurors", "abbrev": "WYOM", "pop": 10, "city": "Cheyenne", "state": "WY", "latitude": 41.14, "longitude":  -104.82},
			{"tid":	22	,	"cid": 4, "did": 8, "region": "Montana", "name": "Treasures", "abbrev": "MONT", "pop": 9, "city": "Billings", "state": "MT", "latitude": 45.783, "longitude": -108.501},
			{"tid":	23	,	"cid": 4, "did": 8, "region": "North Dakota", "name": "Roughriders", "abbrev": "NDU", "pop": 8, "city": "Fargo", "state": "ND", "latitude": 46.877, "longitude": -96.79},
			{"tid":	24	,	"cid": 4, "did": 9, "region": "South Dakota", "name": "Rush", "abbrev": "SDU", "pop": 7, "city": "Sioux Falls", "state": "SD", "latitude": 43.55, "longitude": -96.7},
			{"tid":	25		, "cid": 4, "did": 9, "region": "Nebraska State", "name": "Golden Knights", "abbrev": "NEST", "pop": 6, "city": "Lincoln", "state": "NE", "latitude": 40.8, "longitude": -96.667},
			{"tid":	26		, "cid": 4, "did": 9, "region": "Texas", "name": "Rangers", "abbrev": "TEX", "pop": 5, "city": "Houston", "state": "TX", "latitude": 29.763, "longitude": -95.363},
			{"tid":	27		, "cid": 4, "did": 9, "region": "Texas Tech", "name": "Loners", "abbrev": "TEXT", "pop": 4, "city": "Dallas", "state": "TX", "latitude": 32.783, "longitude": -96.807},
			{"tid":	28		, "cid": 4, "did": 9, "region": "Missouri", "name": "Show", "abbrev": "MISS", "pop": 3, "city": "Kansas City", "state": "MO", "latitude": 39.1, "longitude": -94.579},
			{"tid":	29		, "cid": 4, "did": 9, "region": "Missouri State", "name": "Me", "abbrev": "MIST", "pop": 2, "city": "St Louis", "state": "MO", "latitude": 38.627, "longitude": -90.198},
			{"tid":	30		, "cid": 4, "did": 9, "region": "New Mexico", "name": "Magic", "abbrev": "NM", "pop": 1, "city": "Albuquerque", "state": "NM", "latitude": 35.084, "longitude": -106.651},
			{"tid":	31		, "cid": 4, "did": 9, "region": "Colorado State", "name": "Buntings", "abbrev": "CST", "pop": 0.5, "city": "Colorado Springs", "state": "CO", "latitude": 38.834, "longitude": -104.821}, 		
			{"tid":	32		, "cid": 0, "did": 0, "region": "Virginia", "name": "Colonials", "abbrev": "VA", "pop": 79, "city": "Virginia Beach", "state": "VA", "latitude": 36.853, "longitude": -75.978},
			{"tid":	33		, "cid": 0, "did": 0, "region": "Maryland", "name": "Line", "abbrev": "MD", "pop": 78, "city": "Baltimore", "state": "MD", "latitude": 39.29, "longitude": -76.612},
			{"tid":	34		, "cid": 0, "did": 0, "region": "Delaware", "name": "Blue Hens", "abbrev": "DE", "pop": 77, "city": "Wilmington", "state": "DE", "latitude": 39.746, "longitude": -75.547},
			{"tid":	35		, "cid": 0, "did": 0, "region": "North Carolina", "name": "Tar Heels", "abbrev": "NC", "pop": 76, "city": "Charlotte", "state": "NC", "latitude": 35.227, "longitude": -80.843},
			{"tid":	36		, "cid": 0, "did": 0, "region": "South Carolina", "name": "Wrens", "abbrev": "SC", "pop": 75, "city": "Columbia", "state": "SC", "latitude": 34.001 , "longitude": -81.035},
			{"tid":	37		, "cid": 0, "did": 0, "region": "Florida", "name": "Suns", "abbrev": "FLOR", "pop": 74, "city": "Jacksonville", "state": "FL", "latitude": 30.332 , "longitude": -81.656},
			{"tid":	38		, "cid": 0, "did": 0, "region": "New Jersey", "name": "Gardeners", "abbrev": "NJ", "pop": 73, "city": "Newark", "state": "NJ", "latitude": 40.736, "longitude": -74.172},
			{"tid":	39		, "cid": 0, "did": 0, "region": "New York", "name": "Emperors", "abbrev": "NY", "pop": 72, "city": "New York", "state": "NY", "latitude": 40.714 , "longitude": -74.006},
			{"tid":	40		, "cid": 0, "did": 1, "region": "Rhode Island", "name": "Oceans", "abbrev": "RI", "pop": 71, "city": "Providence ", "state": "RI", "latitude": 41.824, "longitude": -71.413},
			{"tid":	41		, "cid": 0, "did": 1, "region": "Connecticut", "name": "Myristicas", "abbrev": "CONN", "pop": 70, "city": "Bridgeport", "state": "CT", "latitude": 41.167, "longitude":  -73.205},
			{"tid":	42		, "cid": 0, "did": 1, "region": "Massachusetts", "name": "Settlers ", "abbrev": "MASS", "pop": 69, "city": "Boston", "state": "MA", "latitude": 42.358, "longitude": -71.06},
			{"tid":	43		, "cid": 0, "did": 1, "region": "Maine", "name": "Chickadees", "abbrev": "MAIN", "pop": 68, "city": "Portland", "state": "ME", "latitude": 43.661, "longitude": -70.255},
			{"tid":	44		, "cid": 0, "did": 1, "region": "Georgia", "name": "Orange", "abbrev": "GEOR", "pop": 67, "city": "Atlanta", "state": "GA", "latitude": 33.749, "longitude": -84.388},
			{"tid":	45		, "cid": 0, "did": 1, "region": "New Hampshire", "name": "Granite", "abbrev": "NH", "pop": 66, "city": "Manchester ", "state": "NH", "latitude": 42.996, "longitude": -71.455},
			{"tid":	46		, "cid": 0, "did": 1, "region": "Pennsylvania", "name": "Keystones", "abbrev": "PENN", "pop": 65, "city": "Philadelphia", "state": "PA", "latitude": 39.952, "longitude": -75.164},
			{"tid":	47		, "cid": 0, "did": 1, "region": "Vermont", "name": "Mountaineers", "abbrev": "VT", "pop": 64, "city": "Burlington", "state": "VT", "latitude": 44.476, "longitude": -73.212},
			{"tid":	48		, "cid": 1, "did": 2, "region": "Indiana", "name": "Hoosiers", "abbrev": "IND", "pop": 63, "city": "Indianapolis", "state": "IN", "latitude": 39.768, "longitude": -86.158},
			{"tid":	49		, "cid": 1, "did": 2, "region": "Michigan", "name": "Wolverines", "abbrev": "MICH", "pop": 62, "city": "Detroit ", "state": "MI", "latitude": 42.331, "longitude": -83.046},
			{"tid":	50		, "cid": 1, "did": 2, "region": "Illinois", "name": "Ferrets", "abbrev": "ILL", "pop": 61, "city": "Chicago", "state": "IL", "latitude": 41.85, "longitude": -87.65},
			{"tid":	51		, "cid": 1, "did": 2, "region": "Ohio", "name": "Buckeyes", "abbrev": "OHIO", "pop": 60, "city": "Columbus", "state": "OH", "latitude": 39.961, "longitude": -82.999},
			{"tid":	52		, "cid": 1, "did": 2, "region": "Penn State", "name": "Ruffled Grouses", "abbrev": "PSU", "pop": 59, "city": "Pittsburgh", "state": "PA", "latitude": 40.441, "longitude": -79.996},
			{"tid":	53		, "cid": 1, "did": 2, "region": "Illinois State", "name": "Badgers", "abbrev": "ILLS", "pop": 58, "city": "Aurora", "state": "IL", "latitude": 41.761, "longitude": -88.32},
			{"tid":	54		, "cid": 1, "did": 2, "region": "Illinois Tech", "name": "Coyotes", "abbrev": "ILLT", "pop": 57, "city": "Rockford", "state": "IL", "latitude": 42.271, "longitude": -89.094},
			{"tid":	55		, "cid": 1, "did": 2, "region": "Iowa", "name": "Hawkeyes", "abbrev": "IOWA", "pop": 56, "city": "Des Moines", "state": "IA", "latitude": 41.601, "longitude": -93.609},
			{"tid":	56		, "cid": 1, "did": 3, "region": "Maryland State", "name": "Regulars", "abbrev": "MDS", "pop": 55, "city": "Columbia", "state": "MD", "latitude": 39.24, "longitude": -76.839},
			{"tid":	57		, "cid": 1, "did": 3, "region": "Michigan State", "name": "Lakers", "abbrev": "MICS", "pop": 54, "city": "Grand Rapids ", "state": "MI", "latitude": 42.963, "longitude": -85.668},
			{"tid":	58		, "cid": 1, "did": 3, "region": "Minnesota", "name": "Stars", "abbrev": "MINN", "pop": 53, "city": "Minneapolis", "state": "MN", "latitude": 44.98, "longitude": -93.264},
			{"tid":	59		, "cid": 1, "did": 3, "region": "Nebraska", "name": "Cornhuskers", "abbrev": "NEB", "pop": 52, "city": "Omaha", "state": "NE", "latitude": 41.259, "longitude": -95.938},
			{"tid":	60		, "cid": 1, "did": 3, "region": "Ohio State", "name": "Cardinals", "abbrev": "OHST", "pop": 51, "city": "Cleveland ", "state": "OH", "latitude": 41.499, "longitude": -81.695},
			{"tid":	61		, "cid": 1, "did": 3, "region": "Indiana Tech", "name": "Cardinals", "abbrev": "INDT", "pop": 50, "city": "Fort Wayne", "state": "IN", "latitude": 41.131, "longitude": -85.129},
			{"tid":	62		, "cid": 1, "did": 3, "region": "Wisconsin", "name": "Badgers", "abbrev": "WISC", "pop": 49, "city": "Milwaukee", "state": "WI", "latitude": 43.039, "longitude": -87.906},			
			{"tid":	63		, "cid": 1, "did": 3, "region": "West Virginia", "name": "Mountaineers", "abbrev": "WV", "pop": 48, "city": "Charleston", "state": "WV", "latitude": 38.35, "longitude": -81.633},
			{"tid":	64		, "cid": 2, "did": 4, "region": "South Carolina State", "name": "Palmettos", "abbrev": "SCAS", "pop": 47, "city": "Charleston", "state": "SC", "latitude": 32.777 , "longitude": -79.931},
			{"tid":	65		, "cid": 2, "did": 4, "region": "Tennessee", "name": "Volunteers", "abbrev": "TENN", "pop": 46, "city": "Memphis", "state": "TN", "latitude": 35.15, "longitude": -90.049},
			{"tid":	66		, "cid": 2, "did": 4, "region": "Georgia Tech", "name": "Thrashers", "abbrev": "GTEC", "pop": 45, "city": "Columbus", "state": "GA", "latitude": 32.461, "longitude": -84.988},
			{"tid":	67		, "cid": 2, "did": 4, "region": "Alabama", "name": "Yellowhammers", "abbrev": "ALA", "pop": 44, "city": "Birmingham", "state": "AL", "latitude": 33.521, "longitude": -86.802},
			{"tid":	68		, "cid": 2, "did": 4, "region": "Arkansas", "name": "Naturals", "abbrev": "ARK", "pop": 43, "city": "Little Rock", "state": "AR", "latitude": 34.746, "longitude": -92.29},
			{"tid":	69		, "cid": 2, "did": 4, "region": "Alabama State", "name": "Cavalry", "abbrev": "ASU", "pop": 42, "city": "Montgomery", "state": "AL", "latitude": 32.367, "longitude": -86.3},
			{"tid":	70		, "cid": 2, "did": 4, "region": "Louisiana", "name": "Pelicans", "abbrev": "LOU", "pop": 41, "city": "New Orleans", "state": "LA", "latitude": 29.955, "longitude": -90.075},
			{"tid":	71		, "cid": 2, "did": 4, "region": "Louisiana State", "name": "Plunge Divers", "abbrev": "LAS", "pop": 40, "city": "Baton Rouge", "state": "LA", "latitude": 30.451, "longitude": -91.155},
			{"tid":	72		, "cid": 2, "did": 5, "region": "Arkansas State", "name": "Mockingbirds", "abbrev": "ARKS", "pop": 39, "city": "Fort Smith", "state": "AR", "latitude": 35.386, "longitude": -94.399},
			{"tid":	73		, "cid": 2, "did": 5, "region": "Mississippi", "name": "Magnolias", "abbrev": "MISI", "pop": 38, "city": "Jackson", "state": "MS", "latitude": 32.299, "longitude": -90.185},
			{"tid":	74		, "cid": 2, "did": 5, "region": "Mississippi State", "name": "Magnols", "abbrev": "MSSS", "pop": 37, "city": "West Gulfport", "state": "MS", "latitude": 30.404, "longitude": -89.094},
			{"tid":	75		, "cid": 2, "did": 5, "region": "Florida State", "name": "Shine", "abbrev": "FLOS", "pop": 36, "city": "Miami", "state": "FL", "latitude": 25.774, "longitude": -80.194},
			{"tid":	76		, "cid": 2, "did": 5, "region": "Arkansas Tech", "name": "Wild", "abbrev": "ARKT", "pop": 35, "city": "Fayetteville", "state": "AR", "latitude": 36.063, "longitude": -94.157},
			{"tid":	77		, "cid": 2, "did": 5, "region": "Tennessee State", "name": "Statesmen", "abbrev": "TENS", "pop": 34, "city": "New South Memphis", "state": "TN", "latitude": 35.087, "longitude": -90.057},
			{"tid":	78		, "cid": 2, "did": 5, "region": "Kentucky", "name": "Cardinals", "abbrev": "KENT", "pop": 33, "city": "Lexington-Fayette", "state": "KY", "latitude": 38.05, "longitude": -84.459},
			{"tid":	79		, "cid": 2, "did": 5, "region": "Texas State", "name": "Lone Stars", "abbrev": "TEXS", "pop": 32, "city": "San Antonio", "state": "TX", "latitude": 29.424, "longitude": -98.494}
    ]
}